[
  {
    "name": "故宫角楼",
    "destination_name": "北京",
    "location": "北京市东城区景山前街4号故宫东北角",
    "description": "紫禁城四角防御碉楼，琉璃瓦顶与护城河倒影构成经典北京画面",
    "composition": "利用护城河水面倒影对称构图，角楼置于黄金分割点",
    "best_time": "日出前后或日落前1小时（黄金光线）",
    "best_season": "秋季9-10月天高气爽，冬季雪后绝美",
    "photo_score": 9.6,
    "tips": "清晨人少光线柔和，冬季雪后可拍出故宫大片，建议使用三脚架长曝光",
    "equipment": "广角镜头（16-35mm）、三脚架、偏振镜",
    "latitude": 39.9176,
    "longitude": 116.3995,
    "tags": ["古建筑", "倒影", "日出", "经典"],
    "images": []
  },
  {
    "name": "慕田峪长城",
    "destination_name": "北京",
    "location": "北京市怀柔区渤海镇慕田峪村",
    "description": "万里长城精华段，蜿蜒于群山之巅，植被覆盖率高",
    "composition": "利用长城曲线引导视线，广角展现连绵群山",
    "best_time": "日出后2小时或日落前1小时",
    "best_season": "秋季10月红叶满山，冬季雪后壮美",
    "photo_score": 9.4,
    "tips": "秋季红叶与长城相映，建议徒步至高处俯拍，缆车可节省体力",
    "equipment": "广角镜头（16-35mm）、中长焦（70-200mm）",
    "latitude": 40.4319,
    "longitude": 116.5704,
    "tags": ["长城", "群山", "秋色", "壮美"],
    "images": []
  },
  {
    "name": "天坛祈年殿",
    "destination_name": "北京",
    "location": "北京市东城区天坛内东里7号",
    "description": "明清皇帝祭天之所，三重蓝色琉璃瓦圆顶建筑",
    "composition": "中轴对称构图，利用殿前广场线条增强纵深",
    "best_time": "上午9-11点光线充足",
    "best_season": "春秋两季蓝天白云最佳",
    "photo_score": 9.0,
    "tips": "蓝天背景突出蓝色琉璃瓦，建议低角度仰拍展现宏伟，避开旅行团高峰",
    "equipment": "广角镜头（16-35mm）",
    "latitude": 39.8822,
    "longitude": 116.4066,
    "tags": ["古建筑", "对称", "蓝天", "皇家"],
    "images": []
  },
  {
    "name": "外滩夜景",
    "destination_name": "上海",
    "location": "上海市黄浦区中山东一路",
    "description": "万国建筑博览群与陆家嘴天际线隔江相望的都市夜景",
    "composition": "以江面为前景，万国建筑与对岸摩天楼形成对比",
    "best_time": "日落后30分钟蓝调时刻至夜晚10点",
    "best_season": "全年，秋季空气通透最佳",
    "photo_score": 9.7,
    "tips": "蓝调时刻天空与灯光层次最丰富，建议三脚架长曝光，可乘游船拍动态视角",
    "equipment": "广角镜头（16-35mm）、三脚架、ND镜",
    "latitude": 31.2397,
    "longitude": 121.4906,
    "tags": ["夜景", "都市", "天际线", "蓝调"],
    "images": []
  },
  {
    "name": "田子坊弄堂",
    "destination_name": "上海",
    "location": "上海市黄浦区泰康路210弄",
    "description": "石库门里弄改造的文艺街区，小店橱窗与红砖弄堂充满市井文艺气息",
    "composition": "利用弄堂纵深线条，捕捉橱窗色彩与行人瞬间",
    "best_time": "下午2-5点光线斜射弄堂",
    "best_season": "春秋两季",
    "photo_score": 8.6,
    "tips": "捕捉弄堂光影与文艺小店细节，定焦大光圈虚化背景突出主体",
    "equipment": "定焦镜头（35mm/50mm f/1.8）",
    "latitude": 31.2126,
    "longitude": 121.4687,
    "tags": ["弄堂", "文艺", "街拍", "市井"],
    "images": []
  },
  {
    "name": "大熊猫繁育研究基地",
    "destination_name": "成都",
    "location": "成都市成华区熊猫大道1375号",
    "description": "大熊猫栖息地，可近距离观赏国宝进食、嬉戏、睡觉",
    "composition": "长焦捕捉熊猫神态特写，背景虚化突出主体",
    "best_time": "上午8-10点熊猫活跃进食时段",
    "best_season": "全年，冬季熊猫更活跃",
    "photo_score": 9.2,
    "tips": "清晨入园熊猫最活跃，长焦镜头必备，避免使用闪光灯惊扰熊猫",
    "equipment": "长焦镜头（70-200mm或更长）",
    "latitude": 30.7327,
    "longitude": 104.1470,
    "tags": ["熊猫", "动物", "特写", "萌宠"],
    "images": []
  },
  {
    "name": "宽窄巷子",
    "destination_name": "成都",
    "location": "成都市青羊区宽窄巷子",
    "description": "清代古街区，青砖灰瓦院落与川西民居展现老成都风貌",
    "composition": "巷子纵深构图，捕捉茶馆、掏耳朵等市井生活",
    "best_time": "下午3-6点光线柔和",
    "best_season": "春秋两季",
    "photo_score": 8.5,
    "tips": "捕捉茶馆盖碗茶与采耳市井生活，雨天青石板反光更有韵味",
    "equipment": "定焦镜头（35mm/50mm）",
    "latitude": 30.6697,
    "longitude": 104.0548,
    "tags": ["古街", "市井", "茶馆", "川西"],
    "images": []
  },
  {
    "name": "洪崖洞夜景",
    "destination_name": "重庆",
    "location": "重庆市渝中区嘉陵江滨江路88号",
    "description": "11层吊脚楼依山而建，夜景灯光如《千与千寻》汤屋",
    "composition": "对岸千厮门大桥为前景，洪崖洞为视觉中心",
    "best_time": "日落后至夜晚10点亮灯时段",
    "best_season": "全年，雨后雾气朦胧更有意境",
    "photo_score": 9.5,
    "tips": "千厮门大桥视角最佳，蓝调时刻灯光层次丰富，建议广角收纳全景",
    "equipment": "广角镜头（16-35mm）、三脚架",
    "latitude": 29.5654,
    "longitude": 106.5788,
    "tags": ["夜景", "吊脚楼", "魔幻", "千与千寻"],
    "images": []
  },
  {
    "name": "李子坝轻轨穿楼",
    "destination_name": "重庆",
    "location": "重庆市渝中区李子坝正街",
    "description": "轻轨2号线穿居民楼而过，8D魔幻城市标志性景观",
    "composition": "低角度仰拍轻轨穿楼瞬间，建筑框架为画框",
    "best_time": "白天光线充足时段",
    "best_season": "全年",
    "photo_score": 8.8,
    "tips": "观景平台最佳拍摄点，等待轻轨穿楼瞬间连拍，快门速度1/500以上",
    "equipment": "标准变焦镜头（24-70mm）",
    "latitude": 29.5497,
    "longitude": 106.5478,
    "tags": ["轻轨", "穿楼", "魔幻", "城市"],
    "images": []
  },
  {
    "name": "秦始皇兵马俑一号坑",
    "destination_name": "西安",
    "location": "西安市临潼区秦陵北路秦始皇兵马俑博物馆",
    "description": "世界第八大奇迹，数千真人大小的陶俑军阵气势恢宏",
    "composition": "广角展现军阵规模，长焦捕捉单兵陶俑神态",
    "best_time": "上午开馆人少时段",
    "best_season": "春秋两季",
    "photo_score": 9.3,
    "tips": "开馆即入避开人流，前排栏杆处广角收纳全景，禁用闪光灯和三脚架",
    "equipment": "广角镜头（16-35mm）、中长焦（70-200mm）",
    "latitude": 34.3848,
    "longitude": 109.2733,
    "tags": ["遗迹", "兵马俑", "历史", "震撼"],
    "images": []
  },
  {
    "name": "大雁塔北广场夜景",
    "destination_name": "西安",
    "location": "西安市雁塔区雁塔南路",
    "description": "唐代古塔与亚洲最大矩阵音乐喷泉交相辉映",
    "composition": "喷泉为前景，大雁塔为背景，对称构图",
    "best_time": "夜晚喷泉表演时段",
    "best_season": "夏秋两季",
    "photo_score": 8.7,
    "tips": "喷泉表演时慢门拍摄水流如丝，大雁塔灯光勾勒轮廓，三脚架必备",
    "equipment": "广角镜头（16-35mm）、三脚架",
    "latitude": 34.2186,
    "longitude": 108.9594,
    "tags": ["古塔", "喷泉", "夜景", "唐代"],
    "images": []
  },
  {
    "name": "西湖断桥残雪",
    "destination_name": "杭州",
    "location": "杭州市西湖区北山街断桥",
    "description": "白蛇传传说发生地，冬日雪后桥面残雪若隐若现",
    "composition": "以桥为视觉引导线，远山宝塔为背景",
    "best_time": "雪后清晨人少时段",
    "best_season": "冬季雪后，春季桃花盛开",
    "photo_score": 9.0,
    "tips": "雪后清晨光线柔和人少，桃花季桥边花枝可做前景，长焦压缩空间",
    "equipment": "中长焦镜头（70-200mm）",
    "latitude": 30.2626,
    "longitude": 120.1495,
    "tags": ["西湖", "断桥", "雪景", "传说"],
    "images": []
  },
  {
    "name": "灵隐寺飞来峰",
    "destination_name": "杭州",
    "location": "杭州市西湖区灵隐路法云弄1号",
    "description": "千年古刹与飞来峰石窟造像，禅意幽深的佛教圣地",
    "composition": "古树为框架，寺庙飞檐为视觉中心",
    "best_time": "上午8-10点光线斜射古树",
    "best_season": "秋季银杏金黄时",
    "photo_score": 8.8,
    "tips": "清晨人少禅意浓，秋季银杏与黄墙相映，避免拍摄佛像正面",
    "equipment": "标准变焦镜头（24-70mm）",
    "latitude": 30.2418,
    "longitude": 120.1000,
    "tags": ["寺庙", "禅意", "古树", "石窟"],
    "images": []
  },
  {
    "name": "鼓浪屿日光岩",
    "destination_name": "厦门",
    "location": "厦门市思明区鼓浪屿晃岩路62号",
    "description": "鼓浪屿最高点，可俯瞰红屋顶万国建筑与碧海蓝天",
    "composition": "广角俯瞰全岛红屋顶与海面，层次丰富",
    "best_time": "下午4-6点日落前光线温暖",
    "best_season": "春秋两季能见度高",
    "photo_score": 9.1,
    "tips": "登顶俯瞰红屋顶万国建筑群，日落前光线温暖色调迷人",
    "equipment": "广角镜头（16-35mm）",
    "latitude": 24.4484,
    "longitude": 118.0655,
    "tags": ["俯瞰", "红屋顶", "海岛", "万国建筑"],
    "images": []
  },
  {
    "name": "环岛路海滨",
    "destination_name": "厦门",
    "location": "厦门市思明区环岛南路",
    "description": "沿海公路与沙滩棕榈，骑行拍摄的文艺海滨",
    "composition": "公路曲线引导视线，海面与天空为背景",
    "best_time": "日出或日落前后",
    "best_season": "春秋两季",
    "photo_score": 8.6,
    "tips": "骑行途中捕捉公路与海景，日落逆光剪影效果佳",
    "equipment": "标准变焦镜头（24-70mm）",
    "latitude": 24.4374,
    "longitude": 118.1245,
    "tags": ["海滨", "公路", "骑行", "日落"],
    "images": []
  },
  {
    "name": "洱海双廊观景台",
    "destination_name": "大理",
    "location": "大理白族自治州大理市双廊镇",
    "description": "苍山洱海最佳观景点，白族渔村与湖光山色",
    "composition": "前景渔船白族建筑，中景洱海，远景苍山",
    "best_time": "日出或日落前后",
    "best_season": "春秋两季云彩丰富",
    "photo_score": 9.2,
    "tips": "日出苍山日照金山，日落洱海金光粼粼，长焦压缩苍山洱海层次",
    "equipment": "中长焦镜头（70-200mm）",
    "latitude": 25.9472,
    "longitude": 100.1839,
    "tags": ["洱海", "苍山", "日出", "渔村"],
    "images": []
  },
  {
    "name": "崇圣寺三塔",
    "destination_name": "大理",
    "location": "大理白族自治州大理市崇圣寺三塔文化旅游区",
    "description": "南诏国千年三塔，倒影池中塔影与苍山相映",
    "composition": "三塔与倒影对称构图，苍山为背景",
    "best_time": "上午9-11点光线侧射",
    "best_season": "春秋两季",
    "photo_score": 8.9,
    "tips": "倒影池拍三塔倒影经典机位，苍山云雾为背景增色",
    "equipment": "广角镜头（16-35mm）",
    "latitude": 25.7236,
    "longitude": 100.1528,
    "tags": ["三塔", "倒影", "苍山", "古建筑"],
    "images": []
  },
  {
    "name": "玉龙雪山冰川公园",
    "destination_name": "丽江",
    "location": "丽江市玉龙纳西族自治县玉龙雪山景区",
    "description": "海拔4680米雪山之巅，万年冰川与云海日出",
    "composition": "广角展现雪山冰川壮阔，人物为比例参照",
    "best_time": "上午云海日出时段",
    "best_season": "冬春两季雪量充足",
    "photo_score": 9.4,
    "tips": "索道上山拍云海日出，注意高反防护，紫外线强需做好防晒",
    "equipment": "广角镜头（16-35mm）、偏振镜",
    "latitude": 27.1000,
    "longitude": 100.1700,
    "tags": ["雪山", "冰川", "云海", "壮美"],
    "images": []
  },
  {
    "name": "丽江古城四方街夜景",
    "destination_name": "丽江",
    "location": "丽江市古城区丽江古城四方街",
    "description": "纳西古城中心，小桥流水红灯笼映照的浪漫夜景",
    "composition": "小桥流水为前景，红灯笼酒吧为背景",
    "best_time": "夜晚7-10点亮灯时段",
    "best_season": "全年",
    "photo_score": 8.9,
    "tips": "夜晚红灯笼倒映流水，慢门拍摄水面光斑，三脚架长曝光",
    "equipment": "广角镜头（16-35mm）、三脚架",
    "latitude": 26.8721,
    "longitude": 100.2330,
    "tags": ["古城", "夜景", "流水", "红灯笼"],
    "images": []
  },
  {
    "name": "天门山玻璃栈道",
    "destination_name": "张家界",
    "location": "张家界市永定区天门山国家森林公园",
    "description": "悬崖峭壁上的透明栈道，脚下万丈深渊刺激震撼",
    "composition": "低角度展现栈道悬空感，云雾为背景",
    "best_time": "雨后云雾缭绕时段",
    "best_season": "春夏多雨云雾季",
    "photo_score": 9.0,
    "tips": "雨后云雾缭绕如仙境，注意防滑，广角展现悬崖险峻",
    "equipment": "广角镜头（16-35mm）",
    "latitude": 29.0553,
    "longitude": 110.4333,
    "tags": ["玻璃栈道", "悬崖", "云雾", "刺激"],
    "images": []
  },
  {
    "name": "袁家界乾坤柱（哈利路亚山）",
    "destination_name": "张家界",
    "location": "张家界市武陵源区张家界国家森林公园袁家界",
    "description": "阿凡达悬浮山原型，石英砂岩峰柱直插云霄",
    "composition": "乾坤柱为视觉中心，周围峰林为衬托",
    "best_time": "日出后云海未散时段",
    "best_season": "春秋雨后云海季",
    "photo_score": 9.3,
    "tips": "云海时如悬浮山仙境，迷魂台为最佳拍摄点，长焦压缩峰林",
    "equipment": "中长焦镜头（70-200mm）",
    "latitude": 29.3450,
    "longitude": 110.4345,
    "tags": ["峰林", "阿凡达", "云海", "奇观"],
    "images": []
  },
  {
    "name": "漓江兴坪20元背景",
    "destination_name": "桂林",
    "location": "桂林市阳朔县兴坪镇漓江段",
    "description": "第五套人民币20元背面取景地，漓江山水精华",
    "composition": "广角收纳江面群峰，渔筏为点睛",
    "best_time": "清晨6-8点晨雾未散",
    "best_season": "4-10月丰水期",
    "photo_score": 9.5,
    "tips": "清晨晨雾如水墨画，可请渔翁摆拍撒网，长焦压缩群峰层次",
    "equipment": "中长焦镜头（70-200mm）",
    "latitude": 24.9486,
    "longitude": 110.2925,
    "tags": ["漓江", "山水", "水墨", "渔筏"],
    "images": []
  },
  {
    "name": "龙脊梯田",
    "destination_name": "桂林",
    "location": "桂林市龙胜各族自治县龙脊镇",
    "description": "壮族梯田奇观，四季色彩变幻的农耕画卷",
    "composition": "广角展现梯田曲线韵律，层次丰富",
    "best_time": "日出日落前后",
    "best_season": "5-6月灌水、9-10月金黄",
    "photo_score": 9.1,
    "tips": "灌水期如镜面反射天光，金黄期稻浪翻滚，金坑大寨观景台最佳",
    "equipment": "广角镜头（16-35mm）、中长焦（70-200mm）",
    "latitude": 25.7936,
    "longitude": 110.1042,
    "tags": ["梯田", "曲线", "农耕", "四季"],
    "images": []
  },
  {
    "name": "天涯海角",
    "destination_name": "三亚",
    "location": "三亚市天涯区马岭山脚天涯海角游览区",
    "description": "巨石刻字天涯海角，碧海蓝天椰林的热带地标",
    "composition": "巨石为视觉中心，海浪椰林为衬托",
    "best_time": "下午4-6点日落前",
    "best_season": "11月-次年3月",
    "photo_score": 8.7,
    "tips": "日落逆光拍剪影，慢门拍海浪如丝绸，避开正午强光",
    "equipment": "广角镜头（16-35mm）、ND镜",
    "latitude": 18.2443,
    "longitude": 109.2012,
    "tags": ["海景", "巨石", "日落", "热带"],
    "images": []
  },
  {
    "name": "蜈支洲岛情人桥",
    "destination_name": "三亚",
    "location": "三亚市海棠区蜈支洲岛",
    "description": "热带海岛木桥延伸至碧蓝海水，潜水胜地",
    "composition": "木桥为引导线延伸至海面，蓝天为背景",
    "best_time": "上午9-11点海水通透",
    "best_season": "11月-次年4月",
    "photo_score": 9.0,
    "tips": "上午海水最蓝最通透，无人机俯拍木桥入海，偏振镜消除水面反光",
    "equipment": "广角镜头（16-35mm）、偏振镜",
    "latitude": 18.3142,
    "longitude": 109.7635,
    "tags": ["海岛", "木桥", "碧海", "潜水"],
    "images": []
  },
  {
    "name": "伏见稻荷大社千本鸟居",
    "destination_name": "京都",
    "location": "京都市伏见区深草薮之内町68",
    "description": "绵延的朱红色鸟居长廊，京都最具代表性的拍摄地",
    "composition": "利用鸟居的重复线条形成纵深感，低角度仰拍突出延伸感",
    "best_time": "清晨7-8点（避开人流，光线柔和）",
    "best_season": "全年，春秋最佳",
    "photo_score": 9.5,
    "tips": "建议使用广角镜头，清晨人少时拍摄效果最佳，可穿和服增强氛围",
    "equipment": "广角镜头（16-35mm）",
    "latitude": 34.9671,
    "longitude": 135.7727,
    "tags": ["古建筑", "鸟居", "纵深感", "红色"],
    "images": []
  },
  {
    "name": "清水寺舞台",
    "destination_name": "京都",
    "location": "京都市东山区清水1丁目294",
    "description": "悬空木造舞台俯瞰京都，红叶季绝美",
    "composition": "广角展现舞台悬空结构，红叶为前景",
    "best_time": "清晨或日落前",
    "best_season": "11月红叶季、4月樱花季",
    "photo_score": 9.2,
    "tips": "红叶季清晨人少光线柔和，从舞台远眺京都全景，奥之院拍舞台全景",
    "equipment": "广角镜头（16-35mm）",
    "latitude": 34.9949,
    "longitude": 135.7850,
    "tags": ["寺庙", "红叶", "木造", "俯瞰"],
    "images": []
  },
  {
    "name": "岚山竹林小径",
    "destination_name": "京都",
    "location": "京都市右京区嵯峨小仓山田渊山町",
    "description": "高耸竹林形成的绿色隧道，禅意幽深",
    "composition": "竹林垂直线条引导视线向上，仰拍突出高度",
    "best_time": "清晨7-9点光线斜射",
    "best_season": "全年，初夏新竹翠绿",
    "photo_score": 9.0,
    "tips": "清晨人少光线斜射竹叶透光，仰拍突出竹林高度，穿和服拍照绝佳",
    "equipment": "广角镜头（16-35mm）",
    "latitude": 35.0094,
    "longitude": 135.6720,
    "tags": ["竹林", "禅意", "纵深感", "绿色"],
    "images": []
  },
  {
    "name": "素贴山双龙寺",
    "destination_name": "清迈",
    "location": "清迈府素贴山双龙寺",
    "description": "山顶金塔寺庙，俯瞰清迈全景的佛教圣地",
    "composition": "金塔为视觉中心，俯瞰清迈城为背景",
    "best_time": "日落前1小时",
    "best_season": "11月-次年2月凉季",
    "photo_score": 8.9,
    "tips": "日落前金塔反光最艳，可俯瞰清迈全景，绕塔顺时针拍摄",
    "equipment": "广角镜头（16-35mm）",
    "latitude": 18.8031,
    "longitude": 98.9217,
    "tags": ["寺庙", "金塔", "俯瞰", "日落"],
    "images": []
  },
  {
    "name": "契迪龙寺古塔",
    "destination_name": "清迈",
    "location": "清迈古城区契迪龙寺",
    "description": "15世纪红砖古塔遗迹，兰纳王朝建筑代表",
    "composition": "古塔为视觉中心，大象雕塑为前景",
    "best_time": "上午9-11点或下午3-5点",
    "best_season": "11月-次年2月凉季",
    "photo_score": 8.6,
    "tips": "红砖古塔沧桑感强，侧光突出纹理，可拍僧侣与古塔同框",
    "equipment": "标准变焦镜头（24-70mm）",
    "latitude": 18.7869,
    "longitude": 98.9853,
    "tags": ["古塔", "红砖", "兰纳", "遗迹"],
    "images": []
  },
  {
    "name": "海神庙日落",
    "destination_name": "巴厘岛",
    "location": "巴厘岛塔巴南海神庙",
    "description": "矗立礁石上的印度教神庙，日落剪影经典",
    "composition": "神庙剪影为视觉中心，海浪夕阳为背景",
    "best_time": "日落前30分钟至日落后",
    "best_season": "4-10月旱季",
    "photo_score": 9.4,
    "tips": "日落剪影最经典，涨潮时神庙如孤岛，慢门拍海浪如丝绸",
    "equipment": "中长焦镜头（70-200mm）、三脚架",
    "latitude": -8.6212,
    "longitude": 115.0867,
    "tags": ["神庙", "日落", "剪影", "海浪"],
    "images": []
  },
  {
    "name": "乌布德格拉朗梯田",
    "destination_name": "巴厘岛",
    "location": "巴厘岛乌布德格拉朗梯田",
    "description": "热带椰林梯田，《Eat Pray Love》取景地",
    "composition": "梯田曲线引导视线，椰树为点缀",
    "best_time": "上午8-10点光线柔和",
    "best_season": "全年，雨后翠绿",
    "photo_score": 8.8,
    "tips": "上午光线柔和梯田翠绿，可体验秋千拍照，广角展现梯田层次",
    "equipment": "广角镜头（16-35mm）",
    "latitude": -8.4316,
    "longitude": 115.2795,
    "tags": ["梯田", "椰林", "热带", "田园"],
    "images": []
  },
  {
    "name": "还剑湖玉山祠",
    "destination_name": "河内",
    "location": "河内还剑湖玉山祠",
    "description": "湖中红色栖旭桥连接玉山祠，河内地标",
    "composition": "红色木桥与祠堂为视觉中心，湖面为前景",
    "best_time": "清晨或日落前",
    "best_season": "10月-次年4月",
    "photo_score": 8.5,
    "tips": "清晨湖面平静倒影清晰，红色桥梁在绿树中醒目",
    "equipment": "标准变焦镜头（24-70mm）",
    "latitude": 21.0305,
    "longitude": 105.8525,
    "tags": ["湖泊", "红色", "祠堂", "倒影"],
    "images": []
  },
  {
    "name": "三十六街区",
    "destination_name": "河内",
    "location": "河内还剑郡三十六街区",
    "description": "千年古商业街区，窄巷与法式建筑交织的市井烟火",
    "composition": "窄巷纵深构图，捕捉摩托车与市井生活",
    "best_time": "下午3-6点光线斜射",
    "best_season": "10月-次年4月",
    "photo_score": 8.4,
    "tips": "捕捉摩托车穿梭窄巷的市井活力，法式百叶窗与招牌色彩丰富",
    "equipment": "定焦镜头（35mm/50mm）",
    "latitude": 21.0345,
    "longitude": 105.8492,
    "tags": ["古街", "市井", "法式", "街拍"],
    "images": []
  },
  {
    "name": "吴哥窟日出",
    "destination_name": "暹粒",
    "location": "暹粒省吴哥窟",
    "description": "世界最大宗教建筑，日出时五座尖塔剪影倒映莲池",
    "composition": "五塔剪影为视觉中心，莲池倒影对称",
    "best_time": "日出前30分钟至日出后1小时",
    "best_season": "11月-次年3月旱季",
    "photo_score": 9.7,
    "tips": "清晨5点前占位莲池前，日出五塔剪影倒映水中，三脚架必备",
    "equipment": "广角镜头（16-35mm）、三脚架",
    "latitude": 13.4125,
    "longitude": 103.8670,
    "tags": ["日出", "剪影", "倒影", "世界遗产"],
    "images": []
  },
  {
    "name": "塔布隆寺古树缠石",
    "destination_name": "暹粒",
    "location": "暹粒省塔布隆寺",
    "description": "《古墓丽影》取景地，巨树根系缠绕古寺石墙",
    "composition": "树根为视觉引导线缠绕石门，明暗对比",
    "best_time": "上午9-11点光线斜射",
    "best_season": "11月-次年3月旱季",
    "photo_score": 9.2,
    "tips": "上午光线斜射树根纹理清晰，明暗对比突出沧桑感，避开旅行团",
    "equipment": "广角镜头（16-35mm）",
    "latitude": 13.4345,
    "longitude": 103.8850,
    "tags": ["古树", "遗迹", "缠绕", "古墓丽影"],
    "images": []
  },
  {
    "name": "滨海湾花园超级树",
    "destination_name": "新加坡",
    "location": "新加坡滨海湾花园",
    "description": "未来感垂直花园超级树，夜晚灯光秀如阿凡达",
    "composition": "超级树为视觉中心，仰拍突出未来感",
    "best_time": "夜晚灯光秀时段19:45/20:45",
    "best_season": "全年",
    "photo_score": 9.3,
    "tips": "夜晚灯光秀如阿凡达潘多拉，仰拍突出未来感，三脚架长曝光",
    "equipment": "广角镜头（16-35mm）、三脚架",
    "latitude": 1.2816,
    "longitude": 103.8636,
    "tags": ["未来", "灯光秀", "夜景", "花园"],
    "images": []
  },
  {
    "name": "鱼尾狮公园",
    "destination_name": "新加坡",
    "location": "新加坡鱼尾狮公园",
    "description": "新加坡标志鱼尾狮像，与金沙酒店隔河相望",
    "composition": "鱼尾狮为前景，金沙酒店为背景",
    "best_time": "日落蓝调时刻至夜晚",
    "best_season": "全年",
    "photo_score": 8.8,
    "tips": "夜晚金沙酒店灯光为背景，可拍鱼尾狮喷水与天际线同框",
    "equipment": "广角镜头（16-35mm）",
    "latitude": 1.2868,
    "longitude": 103.8545,
    "tags": ["地标", "鱼尾狮", "夜景", "天际线"],
    "images": []
  }
]
